{
"type": "FeatureCollection",
"name": "google_places_full",
"crs": { "type": "name", "properties": { "name": "urn:ogc:def:crs:OGC:1.3:CRS84" } },
"features": [
{ "type": "Feature", "properties": { "name": "DHL Packstation 276", "place_id": "ChIJk5w3Q7JfpkcRsFwOc233EzU", "rating": 3.0, "reviews_count": 2, "type": "DHL Packstation" }, "geometry": { "type": "Point", "coordinates": [ 12.2649523, 51.3857221 ] } },
{ "type": "Feature", "properties": { "name": "DHL Packstation 147", "place_id": "ChIJrdn5HVVZpkcRfugoqwa9xrw", "rating": 3.7, "reviews_count": 6, "type": "DHL Packstation" }, "geometry": { "type": "Point", "coordinates": [ 12.29545, 51.40992 ] } },
{ "type": "Feature", "properties": { "name": "DHL Packstation 254", "place_id": "ChIJ1dbGf3FZpkcRWXrUQrtOZV8", "rating": 3.3, "reviews_count": 6, "type": "DHL Packstation" }, "geometry": { "type": "Point", "coordinates": [ 12.291271, 51.411734 ] } },
{ "type": "Feature", "properties": { "name": "DHL Packstation 171", "place_id": "ChIJIfnmzd9ZpkcRtsFwQwnDmKk", "rating": 3.8, "reviews_count": 5, "type": "DHL Packstation" }, "geometry": { "type": "Point", "coordinates": [ 12.3134299, 51.3770634 ] } },
{ "type": "Feature", "properties": { "name": "DHL Hub Leipzig GmbH - Verwaltung", "place_id": "ChIJdy2BvQ1fpkcR1M4mRaKcmsg", "rating": 4.0, "reviews_count": 1645, "type": "DHL Packstation" }, "geometry": { "type": "Point", "coordinates": [ 12.2351736, 51.40574 ] } },
{ "type": "Feature", "properties": { "name": "DHL Packstation 196", "place_id": "ChIJc8AkkO1ZpkcR7Wcfdltden0", "rating": 4.7, "reviews_count": 7, "type": "DHL Packstation" }, "geometry": { "type": "Point", "coordinates": [ 12.3210481, 51.374893500000013 ] } },
{ "type": "Feature", "properties": { "name": "DHL Packstation 187", "place_id": "ChIJPQcuGHn3pkcRD0xTaYLVuG4", "rating": 5.0, "reviews_count": 1, "type": "DHL Packstation" }, "geometry": { "type": "Point", "coordinates": [ 12.2834868, 51.3597628 ] } },
{ "type": "Feature", "properties": { "name": "DHL Packstation 202", "place_id": "ChIJb6GwFnFfpkcRiOXXOcmoyEs", "rating": 3.0, "reviews_count": 6, "type": "DHL Packstation" }, "geometry": { "type": "Point", "coordinates": [ 12.2348738, 51.405132 ] } },
{ "type": "Feature", "properties": { "name": "DHL Packstation 145", "place_id": "ChIJu0ZA1uL3pkcRBjMDBUCSm10", "rating": 4.2, "reviews_count": 40, "type": "DHL Packstation" }, "geometry": { "type": "Point", "coordinates": [ 12.3453277, 51.368222900000013 ] } },
{ "type": "Feature", "properties": { "name": "DHL Packstation 292", "place_id": "ChIJkZZQoOFZpkcRQUlebl0bikw", "rating": 3.0, "reviews_count": 2, "type": "DHL Packstation" }, "geometry": { "type": "Point", "coordinates": [ 12.33122, 51.373115 ] } },
{ "type": "Feature", "properties": { "name": "DHL Packstation 190", "place_id": "ChIJZUdfdrT3pkcR9oEXxqy4BPI", "rating": 4.0, "reviews_count": 30, "type": "DHL Packstation" }, "geometry": { "type": "Point", "coordinates": [ 12.318642, 51.3458524 ] } },
{ "type": "Feature", "properties": { "name": "DHL Packstation 211", "place_id": "ChIJEakhc1lZpkcRkfwkIjX1ngg", "rating": 4.6, "reviews_count": 8, "type": "DHL Packstation" }, "geometry": { "type": "Point", "coordinates": [ 12.3487075, 51.3756106 ] } },
{ "type": "Feature", "properties": { "name": "DHL Packstation 282", "place_id": "ChIJhzm03ONZpkcR9ikfsVhbxKs", "rating": 4.7, "reviews_count": 3, "type": "DHL Packstation" }, "geometry": { "type": "Point", "coordinates": [ 12.3402807, 51.3923249 ] } },
{ "type": "Feature", "properties": { "name": "DHL Packstation 185", "place_id": "ChIJl6DS6Hf3pkcRfgyPQWEfN28", "rating": 4.4, "reviews_count": 11, "type": "DHL Packstation" }, "geometry": { "type": "Point", "coordinates": [ 12.2934824, 51.3546942 ] } },
{ "type": "Feature", "properties": { "name": "DHL Packstation 175", "place_id": "ChIJSyNVX7T3pkcRpLzwkLwXuLE", "rating": 3.5, "reviews_count": 2, "type": "DHL Packstation" }, "geometry": { "type": "Point", "coordinates": [ 12.300327, 51.3556402 ] } },
{ "type": "Feature", "properties": { "name": "DHL Packstation 213", "place_id": "ChIJSwDyGjv3pkcRqUhxtWRabdg", "rating": 4.5, "reviews_count": 2, "type": "DHL Packstation" }, "geometry": { "type": "Point", "coordinates": [ 12.3453277, 51.368222900000013 ] } },
{ "type": "Feature", "properties": { "name": "DHL Packstation 110", "place_id": "ChIJvW9M2fz3pkcRJVPMsF4sLaE", "rating": 4.4, "reviews_count": 5, "type": "DHL Packstation" }, "geometry": { "type": "Point", "coordinates": [ 12.3168428, 51.3461497 ] } },
{ "type": "Feature", "properties": { "name": "DHL Packstation 248", "place_id": "ChIJ9SZjBbb3pkcRhOqBb1ky4ic", "rating": 4.0, "reviews_count": 21, "type": "DHL Packstation" }, "geometry": { "type": "Point", "coordinates": [ 12.3630675, 51.3618329 ] } },
{ "type": "Feature", "properties": { "name": "DHL Packstation 194", "place_id": "ChIJ60bB2RX3pkcRoKIDNAuAtVA", "rating": 5.0, "reviews_count": 1, "type": "DHL Packstation" }, "geometry": { "type": "Point", "coordinates": [ 12.267582, 51.347271 ] } },
{ "type": "Feature", "properties": { "name": "DHL Packstation 253", "place_id": "ChIJl9F12ZpZpkcRrGwNKGPBB2k", "rating": 4.8, "reviews_count": 4, "type": "DHL Packstation" }, "geometry": { "type": "Point", "coordinates": [ 12.37487, 51.3934991 ] } },
{ "type": "Feature", "properties": { "name": "DHL Packstation 227", "place_id": "ChIJ_7K_eSFZpkcR8CDWaYSdO-4", "rating": 4.0, "reviews_count": 1, "type": "DHL Packstation" }, "geometry": { "type": "Point", "coordinates": [ 12.3597401, 51.3794889 ] } },
{ "type": "Feature", "properties": { "name": "DHL Packstation 408", "place_id": "ChIJx9gEf2hZpkcRcBmo0Be65KY", "rating": 5.0, "reviews_count": 2, "type": "DHL Packstation" }, "geometry": { "type": "Point", "coordinates": [ 12.3609981, 51.3809507 ] } },
{ "type": "Feature", "properties": { "name": "DHL Packstation 169", "place_id": "ChIJxzJ6TrBZpkcRcxZw0vJpnN4", "rating": 4.4, "reviews_count": 17, "type": "DHL Packstation" }, "geometry": { "type": "Point", "coordinates": [ 12.3777098, 51.3770447 ] } },
{ "type": "Feature", "properties": { "name": "DHL Packstation 283", "place_id": "ChIJIQsCzBBZpkcRtygVYg6C2Js", "rating": 2.0, "reviews_count": 5, "type": "DHL Packstation" }, "geometry": { "type": "Point", "coordinates": [ 12.3774848, 51.3771352 ] } },
{ "type": "Feature", "properties": { "name": "DHL Packstation 151", "place_id": "ChIJC8FK1V1ZpkcRnsM18zcJgkw", "rating": 4.1, "reviews_count": 12, "type": "DHL Packstation" }, "geometry": { "type": "Point", "coordinates": [ 12.3639856, 51.375874499999988 ] } },
{ "type": "Feature", "properties": { "name": "DHL Packstation 305", "place_id": "ChIJ_0lVvuJZpkcRUOev_gq6Vsw", "rating": 5.0, "reviews_count": 2, "type": "DHL Packstation" }, "geometry": { "type": "Point", "coordinates": [ 12.363535, 51.372011 ] } },
{ "type": "Feature", "properties": { "name": "DHL Packstation 225", "place_id": "ChIJ08yMGMJXpkcRZQDhXgGt2UM", "rating": 4.3, "reviews_count": 3, "type": "DHL Packstation" }, "geometry": { "type": "Point", "coordinates": [ 12.3955383, 51.4006211 ] } },
{ "type": "Feature", "properties": { "name": "DHL Packstation 293", "place_id": "ChIJGbBfOiRZpkcR6kYKW1n4yOU", "rating": 3.2, "reviews_count": 5, "type": "DHL Packstation" }, "geometry": { "type": "Point", "coordinates": [ 12.37722, 51.37281 ] } },
{ "type": "Feature", "properties": { "name": "Packstation 258", "place_id": "ChIJ1U5Hp6xZpkcRrGTFhdyeC40", "rating": 3.2, "reviews_count": 6, "type": "DHL Packstation" }, "geometry": { "type": "Point", "coordinates": [ 12.35482, 51.3695691 ] } },
{ "type": "Feature", "properties": { "name": "DHL Packstation 143", "place_id": "ChIJt0HScrP3pkcRFr7_CEgRiZo", "rating": 3.9, "reviews_count": 17, "type": "DHL Packstation" }, "geometry": { "type": "Point", "coordinates": [ 12.3630064, 51.3616271 ] } },
{ "type": "Feature", "properties": { "name": "DHL Packstation 102", "place_id": "ChIJf2M7Zaj3pkcRqPHdApAbvQM", "rating": 4.1, "reviews_count": 9, "type": "DHL Packstation" }, "geometry": { "type": "Point", "coordinates": [ 12.3708447, 51.3620779 ] } },
{ "type": "Feature", "properties": { "name": "DHL Packstation 302", "place_id": "ChIJzxFMYeZXpkcRMZEa7aSCdGE", "rating": 5.0, "reviews_count": 1, "type": "DHL Packstation" }, "geometry": { "type": "Point", "coordinates": [ 12.402105, 51.379911 ] } },
{ "type": "Feature", "properties": { "name": "DHL Packstation 207", "place_id": "ChIJ_Wz6DzhXpkcRlX4QVwt8crU", "rating": 5.0, "reviews_count": 1, "type": "DHL Packstation" }, "geometry": { "type": "Point", "coordinates": [ 12.4023896, 51.3768439 ] } },
{ "type": "Feature", "properties": { "name": "DHL Packstation 148", "place_id": "ChIJdSPIa3D5pkcR2p9TEog0SqM", "rating": 4.1, "reviews_count": 24, "type": "DHL Packstation" }, "geometry": { "type": "Point", "coordinates": [ 12.3776929, 51.3602795 ] } },
{ "type": "Feature", "properties": { "name": "Packstation 285", "place_id": "ChIJv-LnClL5pkcRCZoFzQ7fIcA", "rating": 5.0, "reviews_count": 1, "type": "DHL Packstation" }, "geometry": { "type": "Point", "coordinates": [ 12.3814872, 51.3602335 ] } },
{ "type": "Feature", "properties": { "name": "DHL Packstation 162", "place_id": "ChIJp8RLMtNXpkcRnbbh9vCseZg", "rating": 4.3, "reviews_count": 4, "type": "DHL Packstation" }, "geometry": { "type": "Point", "coordinates": [ 12.442881, 51.408421399999987 ] } },
{ "type": "Feature", "properties": { "name": "DHL Packstation 166", "place_id": "ChIJC4GEl7NXpkcR4hN_E7rl0EE", "rating": 4.0, "reviews_count": 7, "type": "DHL Packstation" }, "geometry": { "type": "Point", "coordinates": [ 12.4306578, 51.3786326 ] } },
{ "type": "Feature", "properties": { "name": "DHL Packstation 209", "place_id": "ChIJEb7AaDhXpkcRBoF9IfVm2xs", "rating": 5.0, "reviews_count": 4, "type": "DHL Packstation" }, "geometry": { "type": "Point", "coordinates": [ 12.4582659, 51.3681074 ] } },
{ "type": "Feature", "properties": { "name": "DHL Packstation 194", "place_id": "ChIJF4g0OvdXpkcRm77X5t3jp60", "rating": 4.6, "reviews_count": 5, "type": "DHL Packstation" }, "geometry": { "type": "Point", "coordinates": [ 12.4819768, 51.3756619 ] } },
{ "type": "Feature", "properties": { "name": "DHL Packstation 280", "place_id": "ChIJZzJERPFXpkcRzSOlAu89EGE", "rating": 5.0, "reviews_count": 1, "type": "DHL Packstation" }, "geometry": { "type": "Point", "coordinates": [ 12.4541371, 51.3655765 ] } },
{ "type": "Feature", "properties": { "name": "DHL Packstation 240", "place_id": "ChIJ61UiP2tXpkcR4D1efHrRu_M", "rating": 4.0, "reviews_count": 3, "type": "DHL Packstation" }, "geometry": { "type": "Point", "coordinates": [ 12.4738192, 51.359611699999988 ] } },
{ "type": "Feature", "properties": { "name": "DHL Packstation 162", "place_id": "ChIJq2rD1bRXpkcRdWbUPQ6BHxI", "rating": 3.4, "reviews_count": 10, "type": "DHL Packstation" }, "geometry": { "type": "Point", "coordinates": [ 12.4383783, 51.410830399999988 ] } },
{ "type": "Feature", "properties": { "name": "DHL Packstation 139", "place_id": "ChIJe3bSblT4pkcRS8o72lVs6c0", "rating": 4.0, "reviews_count": 33, "type": "DHL Packstation" }, "geometry": { "type": "Point", "coordinates": [ 12.41308, 51.32326 ] } },
{ "type": "Feature", "properties": { "name": "DHL Packstation 186", "place_id": "ChIJ7ekBbTRXpkcRUKUxwO4-Sr4", "rating": 4.7, "reviews_count": 26, "type": "DHL Packstation" }, "geometry": { "type": "Point", "coordinates": [ 12.4165927, 51.378153 ] } },
{ "type": "Feature", "properties": { "name": "DHL Packstation 278", "place_id": "ChIJM1tQvENXpkcRm7CxX7owVyU", "rating": 5.0, "reviews_count": 2, "type": "DHL Packstation" }, "geometry": { "type": "Point", "coordinates": [ 12.457348, 51.3577592 ] } },
{ "type": "Feature", "properties": { "name": "DHL Packstation 103", "place_id": "ChIJR2xtR5_4pkcRUGoiDcyefLQ", "rating": 3.9, "reviews_count": 21, "type": "DHL Packstation" }, "geometry": { "type": "Point", "coordinates": [ 12.4599171, 51.352534 ] } },
{ "type": "Feature", "properties": { "name": "DHL Packstation 172", "place_id": "ChIJKwOSF1j5pkcR8OYdSO2wsTU", "rating": 4.2, "reviews_count": 5, "type": "DHL Packstation" }, "geometry": { "type": "Point", "coordinates": [ 12.4638636, 51.3499622 ] } },
{ "type": "Feature", "properties": { "name": "DHL Packstation 124", "place_id": "ChIJoRkJQWL4pkcRMcRqjP8NTVg", "rating": 4.1, "reviews_count": 41, "type": "DHL Packstation" }, "geometry": { "type": "Point", "coordinates": [ 12.4272406, 51.346270399999987 ] } },
{ "type": "Feature", "properties": { "name": "DHL Packstation 104", "place_id": "ChIJ8baOj7v5pkcR6jbJxZhSwng", "rating": 4.1, "reviews_count": 39, "type": "DHL Packstation" }, "geometry": { "type": "Point", "coordinates": [ 12.3958711, 51.340836499999988 ] } },
{ "type": "Feature", "properties": { "name": "DHL Packstation 140", "place_id": "ChIJdUulk3H4pkcRpKGiRgR6LZU", "rating": 3.7, "reviews_count": 24, "type": "DHL Packstation" }, "geometry": { "type": "Point", "coordinates": [ 12.4118344, 51.3533103 ] } },
{ "type": "Feature", "properties": { "name": "DHL Packstation 238", "place_id": "ChIJSeKcIwD5pkcRzbVwDhQck-w", "rating": 5.0, "reviews_count": 1, "type": "DHL Packstation" }, "geometry": { "type": "Point", "coordinates": [ 12.47697, 51.3498233 ] } },
{ "type": "Feature", "properties": { "name": "DHL Packstation 163", "place_id": "ChIJL_-B6ST5pkcRFdnpPd-Cr54", "rating": 4.4, "reviews_count": 22, "type": "DHL Packstation" }, "geometry": { "type": "Point", "coordinates": [ 12.3994102, 51.3592834 ] } },
{ "type": "Feature", "properties": { "name": "DHL Packstation 206", "place_id": "ChIJNb9tLxz3pkcRMQrmg70cOqE", "rating": 5.0, "reviews_count": 2, "type": "DHL Packstation" }, "geometry": { "type": "Point", "coordinates": [ 12.2990515, 51.339546899999988 ] } },
{ "type": "Feature", "properties": { "name": "DHL Packstation 183", "place_id": "ChIJv5Vh1kH3pkcRjeQDUWXcdBc", "rating": 4.2, "reviews_count": 26, "type": "DHL Packstation" }, "geometry": { "type": "Point", "coordinates": [ 12.288849, 51.3246347 ] } },
{ "type": "Feature", "properties": { "name": "DHL Packstation 191", "place_id": "ChIJuQvbfgP3pkcRwby9ilL2kc8", "rating": 3.5, "reviews_count": 4, "type": "DHL Packstation" }, "geometry": { "type": "Point", "coordinates": [ 12.2761907, 51.324161 ] } },
{ "type": "Feature", "properties": { "name": "DHL Packstation 249", "place_id": "ChIJF-PfVTj3pkcRd43JG2IlZto", "rating": 4.0, "reviews_count": 4, "type": "DHL Packstation" }, "geometry": { "type": "Point", "coordinates": [ 12.3055693, 51.3344205 ] } },
{ "type": "Feature", "properties": { "name": "DHL Packstation 242", "place_id": "ChIJc_CPKWv3pkcRlD1WqIqP8Eo", "rating": 4.7, "reviews_count": 3, "type": "DHL Packstation" }, "geometry": { "type": "Point", "coordinates": [ 12.3077845, 51.338093 ] } },
{ "type": "Feature", "properties": { "name": "DHL Packstation 222", "place_id": "ChIJz4NjVOj3pkcR5Q-LdGCn9j8", "rating": 5.0, "reviews_count": 3, "type": "DHL Packstation" }, "geometry": { "type": "Point", "coordinates": [ 12.3086682, 51.3466742 ] } },
{ "type": "Feature", "properties": { "name": "DHL Packstation 252", "place_id": "ChIJbX1y6or3pkcR5lBTqfHCDM8", "rating": 5.0, "reviews_count": 2, "type": "DHL Packstation" }, "geometry": { "type": "Point", "coordinates": [ 12.309043, 51.3284569 ] } },
{ "type": "Feature", "properties": { "name": "DHL Packstation 261", "place_id": "ChIJ_9cvYQX3pkcRfq9y1PnWRsA", "rating": 2.2, "reviews_count": 6, "type": "DHL Packstation" }, "geometry": { "type": "Point", "coordinates": [ 12.2862505, 51.3174191 ] } },
{ "type": "Feature", "properties": { "name": "DHL Packstation 164", "place_id": "ChIJgUxLnpX3pkcRc04lpjG01SA", "rating": 5.0, "reviews_count": 1, "type": "DHL Packstation" }, "geometry": { "type": "Point", "coordinates": [ 12.3228685, 51.3382433 ] } },
{ "type": "Feature", "properties": { "name": "DHL Packstation 168", "place_id": "ChIJzaZ25Sn3pkcRt4AhRfLwjjM", "rating": 4.3, "reviews_count": 32, "type": "DHL Packstation" }, "geometry": { "type": "Point", "coordinates": [ 12.2626297, 51.316718 ] } },
{ "type": "Feature", "properties": { "name": "DHL Packstation 154", "place_id": "ChIJjztoxYj3pkcRfus8wuF10rk", "rating": 4.0, "reviews_count": 24, "type": "DHL Packstation" }, "geometry": { "type": "Point", "coordinates": [ 12.3045943, 51.3204605 ] } },
{ "type": "Feature", "properties": { "name": "DHL Packstation 105", "place_id": "ChIJsfPhKx35pkcRCJX-R8LH-vo", "rating": 4.4, "reviews_count": 26, "type": "DHL Packstation" }, "geometry": { "type": "Point", "coordinates": [ 12.3669899, 51.3362193 ] } },
{ "type": "Feature", "properties": { "name": "DHL Packstation 247", "place_id": "ChIJVd6FiRH5pkcRTirB2tygR_Y", "rating": 4.3, "reviews_count": 9, "type": "DHL Packstation" }, "geometry": { "type": "Point", "coordinates": [ 12.3801178, 51.3446137 ] } },
{ "type": "Feature", "properties": { "name": "DHL Packstation 101", "place_id": "ChIJwQjwRDD4pkcRBWhwwCNBvLo", "rating": 4.4, "reviews_count": 14, "type": "DHL Packstation" }, "geometry": { "type": "Point", "coordinates": [ 12.377513, 51.346785 ] } },
{ "type": "Feature", "properties": { "name": "DHL Packstation 269", "place_id": "ChIJfRknEgD5pkcRTLPkE5W7Vx4", "rating": 3.4, "reviews_count": 5, "type": "DHL Packstation" }, "geometry": { "type": "Point", "coordinates": [ 12.3741034, 51.3372275 ] } },
{ "type": "Feature", "properties": { "name": "DHL Packstation 141", "place_id": "ChIJLVA3MR_4pkcRu9GOQJJCne4", "rating": 4.3, "reviews_count": 42, "type": "DHL Packstation" }, "geometry": { "type": "Point", "coordinates": [ 12.3812961, 51.3318152 ] } },
{ "type": "Feature", "properties": { "name": "DHL Packstation 152", "place_id": "ChIJU6IDUIr5pkcRIaPH0GoB864", "rating": 3.3, "reviews_count": 4, "type": "DHL Packstation" }, "geometry": { "type": "Point", "coordinates": [ 12.3743007, 51.3469184 ] } },
{ "type": "Feature", "properties": { "name": "DHL Paketshop 520", "place_id": "ChIJ02i_-yj5pkcRD-kPUO9XiIo", "rating": 3.8, "reviews_count": 16, "type": "DHL Packstation" }, "geometry": { "type": "Point", "coordinates": [ 12.3730137, 51.3423692 ] } },
{ "type": "Feature", "properties": { "name": "DHL Packstation 149", "place_id": "ChIJr0Y5vEL5pkcR70VqQXjQhEY", "rating": 4.0, "reviews_count": 8, "type": "DHL Packstation" }, "geometry": { "type": "Point", "coordinates": [ 12.374056, 51.3494424 ] } },
{ "type": "Feature", "properties": { "name": "DHL Packstation 146", "place_id": "ChIJl5Cq9nT5pkcRfyafWJ4F9ng", "rating": 3.3, "reviews_count": 75, "type": "DHL Packstation" }, "geometry": { "type": "Point", "coordinates": [ 12.3837607, 51.3403067 ] } },
{ "type": "Feature", "properties": { "name": "DHL Paketshop 682", "place_id": "ChIJ2X74ItD3pkcRaL2TSxqwSUc", "rating": 4.3, "reviews_count": 3, "type": "DHL Packstation" }, "geometry": { "type": "Point", "coordinates": [ 12.3647489, 51.3405217 ] } },
{ "type": "Feature", "properties": { "name": "DHL Packstation 218", "place_id": "ChIJgcTSQ435pkcReqMIU8z396k", "rating": 4.2, "reviews_count": 5, "type": "DHL Packstation" }, "geometry": { "type": "Point", "coordinates": [ 12.3786467, 51.3304124 ] } },
{ "type": "Feature", "properties": { "name": "DHL Packstation 144", "place_id": "ChIJW7yL-Cz4pkcRlgY8-UDAA9w", "rating": 3.8, "reviews_count": 26, "type": "DHL Packstation" }, "geometry": { "type": "Point", "coordinates": [ 12.3719217, 51.3261786 ] } },
{ "type": "Feature", "properties": { "name": "DHL Paketshop 443", "place_id": "ChIJz2zqXdv3pkcRI5Sm6MTubzM", "rating": 4.2, "reviews_count": 22, "type": "DHL Packstation" }, "geometry": { "type": "Point", "coordinates": [ 12.3669823, 51.340641 ] } },
{ "type": "Feature", "properties": { "name": "DHL Packstation 243", "place_id": "ChIJw3zTQvX5pkcRd4khA4W39xo", "rating": 3.5, "reviews_count": 8, "type": "DHL Packstation" }, "geometry": { "type": "Point", "coordinates": [ 12.374056, 51.3433471 ] } },
{ "type": "Feature", "properties": { "name": "DHL Packstation 251", "place_id": "ChIJOwDbvpL3pkcRAkib71luS6o", "rating": 2.7, "reviews_count": 3, "type": "DHL Packstation" }, "geometry": { "type": "Point", "coordinates": [ 12.359717, 51.3358261 ] } },
{ "type": "Feature", "properties": { "name": "DHL Packstation 271", "place_id": "ChIJJ2mLQ9H5pkcR9qXHfZB4VK4", "rating": 3.1, "reviews_count": 10, "type": "DHL Packstation" }, "geometry": { "type": "Point", "coordinates": [ 12.477921, 51.3390692 ] } },
{ "type": "Feature", "properties": { "name": "Packstation 260", "place_id": "ChIJpeiPEKz5pkcREmDfF9P58Mo", "rating": 1.8, "reviews_count": 5, "type": "DHL Packstation" }, "geometry": { "type": "Point", "coordinates": [ 12.4787551, 51.3440283 ] } },
{ "type": "Feature", "properties": { "name": "DHL Packstation 177", "place_id": "ChIJW2sBNTn5pkcRXLQEiIvvlsQ", "rating": 3.9, "reviews_count": 15, "type": "DHL Packstation" }, "geometry": { "type": "Point", "coordinates": [ 12.4603099, 51.34632 ] } },
{ "type": "Feature", "properties": { "name": "DHL Packstation 217", "place_id": "ChIJLZdbUFH5pkcRlU6lq3WoN6A", "rating": 5.0, "reviews_count": 1, "type": "DHL Packstation" }, "geometry": { "type": "Point", "coordinates": [ 12.4494151, 51.3452637 ] } },
{ "type": "Feature", "properties": { "name": "DHL Packstation 250", "place_id": "ChIJq3MXU0__pkcRUfwrCMlZx6E", "rating": 3.7, "reviews_count": 3, "type": "DHL Packstation" }, "geometry": { "type": "Point", "coordinates": [ 12.4926228, 51.34655 ] } },
{ "type": "Feature", "properties": { "name": "DHL Packstation 188", "place_id": "ChIJYSuR5hD5pkcRkooKdrbIBB4", "rating": 5.0, "reviews_count": 1, "type": "DHL Packstation" }, "geometry": { "type": "Point", "coordinates": [ 12.440568, 51.350531 ] } },
{ "type": "Feature", "properties": { "name": "DHL Packstation 121", "place_id": "ChIJnXHjXbP5pkcRjx_hbGy4MxY", "rating": 4.0, "reviews_count": 1, "type": "DHL Packstation" }, "geometry": { "type": "Point", "coordinates": [ 12.449302, 51.325637 ] } },
{ "type": "Feature", "properties": { "name": "DHL Packstation 111", "place_id": "ChIJYQgaXOr_pkcR1AyCOqcDnNw", "rating": 5.0, "reviews_count": 3, "type": "DHL Packstation" }, "geometry": { "type": "Point", "coordinates": [ 12.4907399, 51.32334 ] } },
{ "type": "Feature", "properties": { "name": "DHL Packstation 245", "place_id": "ChIJH3qkw975pkcRTksQfYwPZqQ", "rating": 3.0, "reviews_count": 2, "type": "DHL Packstation" }, "geometry": { "type": "Point", "coordinates": [ 12.427554, 51.345619 ] } },
{ "type": "Feature", "properties": { "name": "DHL Packstation 256", "place_id": "ChIJ6SY7bYH5pkcRj3xqwBrY8_0", "rating": 2.5, "reviews_count": 2, "type": "DHL Packstation" }, "geometry": { "type": "Point", "coordinates": [ 12.4377567, 51.3568757 ] } },
{ "type": "Feature", "properties": { "name": "DHL Packstation 167", "place_id": "ChIJSUlB13H3pkcR0OJoceGiTDU", "rating": 4.3, "reviews_count": 24, "type": "DHL Packstation" }, "geometry": { "type": "Point", "coordinates": [ 12.26632, 51.3086803 ] } },
{ "type": "Feature", "properties": { "name": "DHL Packstation 189", "place_id": "ChIJe6ZFfCL3pkcRL5WSGwAIJXU", "rating": 5.0, "reviews_count": 7, "type": "DHL Packstation" }, "geometry": { "type": "Point", "coordinates": [ 12.279333, 51.3116224 ] } },
{ "type": "Feature", "properties": { "name": "DHL Packstation 184", "place_id": "ChIJF87e4Aj3pkcR5kWkFeVP7Yk", "rating": 4.3, "reviews_count": 19, "type": "DHL Packstation" }, "geometry": { "type": "Point", "coordinates": [ 12.3167566, 51.3013749 ] } },
{ "type": "Feature", "properties": { "name": "DHL Packstation 228", "place_id": "ChIJlTsP-JDxpkcR7UwOZooQ6C8", "rating": 5.0, "reviews_count": 1, "type": "DHL Packstation" }, "geometry": { "type": "Point", "coordinates": [ 12.31169, 51.28322 ] } },
{ "type": "Feature", "properties": { "name": "DHL Packstation 234", "place_id": "ChIJG2hP1833pkcRC7eldzJWVZM", "rating": 4.4, "reviews_count": 5, "type": "DHL Packstation" }, "geometry": { "type": "Point", "coordinates": [ 12.322052, 51.3031251 ] } },
{ "type": "Feature", "properties": { "name": "DHL Packstation 202", "place_id": "ChIJz5-UOJb3pkcRiQ8_xAm4W_A", "rating": 4.8, "reviews_count": 4, "type": "DHL Packstation" }, "geometry": { "type": "Point", "coordinates": [ 12.3103735, 51.3170772 ] } },
{ "type": "Feature", "properties": { "name": "DHL Packstation 279", "place_id": "ChIJyd1TnJz3pkcRqxFqKRBXcMQ", "rating": 3.5, "reviews_count": 2, "type": "DHL Packstation" }, "geometry": { "type": "Point", "coordinates": [ 12.2904036, 51.3193849 ] } },
{ "type": "Feature", "properties": { "name": "DHL Packstation 173", "place_id": "ChIJd1nRxGz3pkcRWJSOk32imMQ", "rating": 3.3, "reviews_count": 3, "type": "DHL Packstation" }, "geometry": { "type": "Point", "coordinates": [ 12.3089089, 51.3105481 ] } },
{ "type": "Feature", "properties": { "name": "DHL Packstation 203", "place_id": "ChIJ1R2ZtE_3pkcRjOGFgLzWYZs", "rating": 4.5, "reviews_count": 23, "type": "DHL Packstation" }, "geometry": { "type": "Point", "coordinates": [ 12.334921, 51.3251066 ] } },
{ "type": "Feature", "properties": { "name": "DHL Packstation 155", "place_id": "ChIJMVmdXv_3pkcR_xxl9STneBI", "rating": 4.4, "reviews_count": 20, "type": "DHL Packstation" }, "geometry": { "type": "Point", "coordinates": [ 12.3324469, 51.3238667 ] } },
{ "type": "Feature", "properties": { "name": "DHL Packstation 219", "place_id": "ChIJ7WWQXBL3pkcRf5lPkvpaKz4", "rating": 3.0, "reviews_count": 2, "type": "DHL Packstation" }, "geometry": { "type": "Point", "coordinates": [ 12.32523, 51.30696 ] } },
{ "type": "Feature", "properties": { "name": "DHL Packstation 131", "place_id": "ChIJt_oEkCn3pkcRYuVfj00Bkb8", "rating": 5.0, "reviews_count": 2, "type": "DHL Packstation" }, "geometry": { "type": "Point", "coordinates": [ 12.3267426, 51.310512900000013 ] } },
{ "type": "Feature", "properties": { "name": "DHL Packstation 404", "place_id": "ChIJ63EPIiL3pkcRL4VWtBdu_Ag", "rating": 3.7, "reviews_count": 3, "type": "DHL Packstation" }, "geometry": { "type": "Point", "coordinates": [ 12.2809723, 51.3155034 ] } },
{ "type": "Feature", "properties": { "name": "DHL Packstation 186", "place_id": "ChIJVYgiWeP5pkcR7w6GchRWEmQ", "rating": 5.0, "reviews_count": 1, "type": "DHL Packstation" }, "geometry": { "type": "Point", "coordinates": [ 12.366035, 51.286192 ] } },
{ "type": "Feature", "properties": { "name": "DHL Packstation 161", "place_id": "ChIJzR--YIH5pkcRfKFrFFXXscs", "rating": 3.0, "reviews_count": 4, "type": "DHL Packstation" }, "geometry": { "type": "Point", "coordinates": [ 12.3867309, 51.2956222 ] } },
{ "type": "Feature", "properties": { "name": "DHL Packstation 108", "place_id": "ChIJ03zZuqL5pkcR2Lc2N0FkrAs", "rating": 3.8, "reviews_count": 21, "type": "DHL Packstation" }, "geometry": { "type": "Point", "coordinates": [ 12.3950044, 51.301062 ] } },
{ "type": "Feature", "properties": { "name": "DHL Packstation 185", "place_id": "ChIJIZ-5PaH5pkcRXI7Z2l2Aj8o", "rating": 5.0, "reviews_count": 1, "type": "DHL Packstation" }, "geometry": { "type": "Point", "coordinates": [ 12.364807, 51.283256 ] } },
{ "type": "Feature", "properties": { "name": "DHL Packstation 107", "place_id": "ChIJs4JgXM_5pkcR1MHGf2ZrSJ8", "rating": 3.6, "reviews_count": 29, "type": "DHL Packstation" }, "geometry": { "type": "Point", "coordinates": [ 12.3763915, 51.313564 ] } },
{ "type": "Feature", "properties": { "name": "DHL Packstation 232", "place_id": "ChIJ1ffQaFL5pkcRFa6BTeVyvPI", "rating": 5.0, "reviews_count": 1, "type": "DHL Packstation" }, "geometry": { "type": "Point", "coordinates": [ 12.394943, 51.2849505 ] } },
{ "type": "Feature", "properties": { "name": "DHL Packstation 290", "place_id": "ChIJxz9Gmbr5pkcRJ9RPtVPWPMw", "rating": 1.5, "reviews_count": 4, "type": "DHL Packstation" }, "geometry": { "type": "Point", "coordinates": [ 12.3804038, 51.3063008 ] } },
{ "type": "Feature", "properties": { "name": "DHL Packstation 165", "place_id": "ChIJuU86S0L5pkcRXWginQarrt0", "rating": 4.5, "reviews_count": 36, "type": "DHL Packstation" }, "geometry": { "type": "Point", "coordinates": [ 12.3692447, 51.313964299999988 ] } },
{ "type": "Feature", "properties": { "name": "DHL Packstation 159", "place_id": "ChIJQ9pZUa75pkcRrMhnayf3BgY", "rating": 4.1, "reviews_count": 37, "type": "DHL Packstation" }, "geometry": { "type": "Point", "coordinates": [ 12.3948742, 51.310744199999988 ] } },
{ "type": "Feature", "properties": { "name": "DHL Packstation 297", "place_id": "ChIJfW1N3Oj5pkcRxNExpdjbz3A", "rating": 2.5, "reviews_count": 2, "type": "DHL Packstation" }, "geometry": { "type": "Point", "coordinates": [ 12.3737544, 51.3110265 ] } },
{ "type": "Feature", "properties": { "name": "DHL Packstation 178", "place_id": "ChIJS8J6HOL5pkcRdHAn434FX_E", "rating": 4.1, "reviews_count": 13, "type": "DHL Packstation" }, "geometry": { "type": "Point", "coordinates": [ 12.3942877, 51.3133043 ] } },
{ "type": "Feature", "properties": { "name": "DHL Packstation 221", "place_id": "ChIJc-gTEL35pkcRjKP1OzFMcm0", "rating": 1.0, "reviews_count": 1, "type": "DHL Packstation" }, "geometry": { "type": "Point", "coordinates": [ 12.3691653, 51.3139676 ] } },
{ "type": "Feature", "properties": { "name": "DHL Packstation 298", "place_id": "ChIJKfUq2Oz5pkcR_3vag02BlWE", "rating": 5.0, "reviews_count": 1, "type": "DHL Packstation" }, "geometry": { "type": "Point", "coordinates": [ 12.3954729, 51.3063279 ] } },
{ "type": "Feature", "properties": { "name": "DHL Packstation 106", "place_id": "ChIJsSNdfkr4pkcR64PPmiLV5jQ", "rating": 4.0, "reviews_count": 24, "type": "DHL Packstation" }, "geometry": { "type": "Point", "coordinates": [ 12.39077, 51.32491 ] } },
{ "type": "Feature", "properties": { "name": "DHL Packstation 244", "place_id": "ChIJNfrLqMT5pkcRcg1A74cIeEI", "rating": 3.0, "reviews_count": 2, "type": "DHL Packstation" }, "geometry": { "type": "Point", "coordinates": [ 12.4446592, 51.2905785 ] } },
{ "type": "Feature", "properties": { "name": "DHL Packstation 311", "place_id": "ChIJF9iSugX5pkcRrPlfVS153Vs", "rating": 5.0, "reviews_count": 2, "type": "DHL Packstation" }, "geometry": { "type": "Point", "coordinates": [ 12.427769, 51.290775 ] } },
{ "type": "Feature", "properties": { "name": "DHL Packstation 176", "place_id": "ChIJIS7526v5pkcRLLjLWSzij9I", "rating": 5.0, "reviews_count": 5, "type": "DHL Packstation" }, "geometry": { "type": "Point", "coordinates": [ 12.4328818, 51.3003353 ] } },
{ "type": "Feature", "properties": { "name": "DHL Packstation 286", "place_id": "ChIJXYBbeef5pkcRy9t2YT4JTm4", "rating": 3.8, "reviews_count": 4, "type": "DHL Packstation" }, "geometry": { "type": "Point", "coordinates": [ 12.4292375, 51.2899524 ] } },
{ "type": "Feature", "properties": { "name": "DHL Paketshop 409", "place_id": "ChIJe5tCR_z5pkcRL3_MiKO-3Wo", "rating": 2.8, "reviews_count": 6, "type": "DHL Packstation" }, "geometry": { "type": "Point", "coordinates": [ 12.4328249, 51.3004007 ] } },
{ "type": "Feature", "properties": { "name": "DHL Packstation 205", "place_id": "ChIJo7R_LA75pkcRWjalrfGkUCM", "rating": 5.0, "reviews_count": 1, "type": "DHL Packstation" }, "geometry": { "type": "Point", "coordinates": [ 12.4250355, 51.302570499999987 ] } },
{ "type": "Feature", "properties": { "name": "DHL Packstation 288", "place_id": "ChIJUwGCLOL5pkcRaib2NkCzTug", "rating": 3.0, "reviews_count": 5, "type": "DHL Packstation" }, "geometry": { "type": "Point", "coordinates": [ 12.4241191, 51.3195799 ] } },
{ "type": "Feature", "properties": { "name": "DHL Packstation 182", "place_id": "ChIJuQNKQ0T5pkcRd6kpAgAnN5o", "rating": 5.0, "reviews_count": 4, "type": "DHL Packstation" }, "geometry": { "type": "Point", "coordinates": [ 12.4306451, 51.2797952 ] } },
{ "type": "Feature", "properties": { "name": "DHL Packstation 223", "place_id": "ChIJXfVJLj75pkcRZOYlzjz5oME", "rating": 3.7, "reviews_count": 3, "type": "DHL Packstation" }, "geometry": { "type": "Point", "coordinates": [ 12.4300146, 51.3211004 ] } },
{ "type": "Feature", "properties": { "name": "DHL Packstation 215", "place_id": "ChIJB_Mplv75pkcRIpBrWBh1PY8", "rating": 5.0, "reviews_count": 4, "type": "DHL Packstation" }, "geometry": { "type": "Point", "coordinates": [ 12.4144405, 51.3131986 ] } },
{ "type": "Feature", "properties": { "name": "Hermes PaketShop", "place_id": "ChIJfSZKCyj3pkcRWzUAQ-qnJ9c", "rating": 4.7, "reviews_count": 6, "type": "Paketshop" }, "geometry": { "type": "Point", "coordinates": [ 12.3133799, 51.3770864 ] } },
{ "type": "Feature", "properties": { "name": "Hermes PaketShop", "place_id": "ChIJ96Nxl1D5pkcRh3fxgnGiMp4", "rating": 1.5, "reviews_count": 26, "type": "Paketshop" }, "geometry": { "type": "Point", "coordinates": [ 12.3848495, 51.33741 ] } },
{ "type": "Feature", "properties": { "name": "Hermes PaketShop", "place_id": "ChIJVwlBibhZpkcRwlIVut6WuVc", "rating": 4.5, "reviews_count": 4, "type": "Paketshop" }, "geometry": { "type": "Point", "coordinates": [ 12.3210697, 51.3909187 ] } },
{ "type": "Feature", "properties": { "name": "DPD Pickup Paketshop", "place_id": "ChIJrageqz_3pkcR9v-di3exq4s", "rating": 5.0, "reviews_count": 1, "type": "Paketshop" }, "geometry": { "type": "Point", "coordinates": [ 12.2924245, 51.3581097 ] } },
{ "type": "Feature", "properties": { "name": "GLS Paketstation", "place_id": "ChIJDZifkKL3pkcRJk6lP5CMfCE", "rating": 3.7, "reviews_count": 6, "type": "Paketshop" }, "geometry": { "type": "Point", "coordinates": [ 12.364136, 51.338825 ] } },
{ "type": "Feature", "properties": { "name": "Hermes PaketShop", "place_id": "ChIJbU73ClhfpkcRLjsCUxtT_Rw", "rating": 4.4, "reviews_count": 7, "type": "Paketshop" }, "geometry": { "type": "Point", "coordinates": [ 12.24189, 51.3903999 ] } },
{ "type": "Feature", "properties": { "name": "GLS PaketShop", "place_id": "ChIJT8UEw35ZpkcRH63Ms49OY3k", "rating": 3.0, "reviews_count": 2, "type": "Paketshop" }, "geometry": { "type": "Point", "coordinates": [ 12.3231332, 51.3762108 ] } },
{ "type": "Feature", "properties": { "name": "Hermes PaketShop", "place_id": "ChIJjTXiDZRZpkcRFgIZM1DgwFo", "rating": 1.0, "reviews_count": 1, "type": "Paketshop" }, "geometry": { "type": "Point", "coordinates": [ 12.2999068, 51.4128447 ] } },
{ "type": "Feature", "properties": { "name": "Hermes PaketShop", "place_id": "ChIJsZ4zoF1ZpkcRJ-ts1wHQ5KM", "rating": 5.0, "reviews_count": 3, "type": "Paketshop" }, "geometry": { "type": "Point", "coordinates": [ 12.3386297, 51.3940811 ] } },
{ "type": "Feature", "properties": { "name": "Hermes PaketShop", "place_id": "ChIJ3YYuGYn3pkcR411XOB4cMCs", "rating": 3.5, "reviews_count": 4, "type": "Paketshop" }, "geometry": { "type": "Point", "coordinates": [ 12.2931404, 51.3591499 ] } },
{ "type": "Feature", "properties": { "name": "Hermes PaketShop", "place_id": "ChIJ-6xdA8z5pkcRXrjTNeLPcJA", "rating": 2.8, "reviews_count": 19, "type": "Paketshop" }, "geometry": { "type": "Point", "coordinates": [ 12.4193296, 51.332878099999988 ] } },
{ "type": "Feature", "properties": { "name": "Hermes PaketShop", "place_id": "ChIJLe3rom_3pkcRmbYF5EnrDkA", "rating": 5.0, "reviews_count": 1, "type": "Paketshop" }, "geometry": { "type": "Point", "coordinates": [ 12.3583899, 51.3440704 ] } },
{ "type": "Feature", "properties": { "name": "DPD Pickup Paketshop", "place_id": "ChIJKV4qAkv2pkcRkC7d-n_WL7Y", "rating": 3.6, "reviews_count": 19, "type": "Paketshop" }, "geometry": { "type": "Point", "coordinates": [ 12.3103718, 51.3488942 ] } },
{ "type": "Feature", "properties": { "name": "DHL Paketshop 584", "place_id": "ChIJicrgETv3pkcRtBxbNuVLd0A", "rating": 3.3, "reviews_count": 7, "type": "Paketshop" }, "geometry": { "type": "Point", "coordinates": [ 12.350283, 51.3658291 ] } },
{ "type": "Feature", "properties": { "name": "Hermes PaketShop", "place_id": "ChIJJ5D_1txZpkcRADw_55yOnVM", "rating": 4.0, "reviews_count": 4, "type": "Paketshop" }, "geometry": { "type": "Point", "coordinates": [ 12.3381205, 51.3708992 ] } },
{ "type": "Feature", "properties": { "name": "GLS PaketShop", "place_id": "ChIJ9Yjljib3pkcRQ5miQRmUZ9E", "rating": 3.4, "reviews_count": 5, "type": "Paketshop" }, "geometry": { "type": "Point", "coordinates": [ 12.3012633, 51.3494559 ] } },
{ "type": "Feature", "properties": { "name": "Deutsche Post Filiale 502", "place_id": "ChIJswiCjYv3pkcRUmedT_axZ2M", "rating": 3.5, "reviews_count": 347, "type": "Paketshop" }, "geometry": { "type": "Point", "coordinates": [ 12.3627742, 51.3424756 ] } },
{ "type": "Feature", "properties": { "name": "Hermes PaketShop", "place_id": "ChIJhe071hlZpkcRMxGNRG71LYw", "rating": 3.8, "reviews_count": 17, "type": "Paketshop" }, "geometry": { "type": "Point", "coordinates": [ 12.3103104, 51.3489113 ] } },
{ "type": "Feature", "properties": { "name": "GLS PaketShop", "place_id": "ChIJjYKqsG35pkcRnx8dm5sYUzU", "rating": 2.7, "reviews_count": 101, "type": "Paketshop" }, "geometry": { "type": "Point", "coordinates": [ 12.3893454, 51.3843901 ] } },
{ "type": "Feature", "properties": { "name": "GLS PaketShop", "place_id": "ChIJzeuAIQBZpkcR9GlusH0Swdk", "rating": 4.3, "reviews_count": 4, "type": "Paketshop" }, "geometry": { "type": "Point", "coordinates": [ 12.3869773, 51.3963863 ] } },
{ "type": "Feature", "properties": { "name": "Hermes PaketShop", "place_id": "ChIJhavKxYhZpkcR1cva72QtIrk", "rating": 4.2, "reviews_count": 5, "type": "Paketshop" }, "geometry": { "type": "Point", "coordinates": [ 12.3874197, 51.396560699999988 ] } },
{ "type": "Feature", "properties": { "name": "DHL Paketshop 689", "place_id": "ChIJy3HDnzVZpkcRotiGZCogXZo", "rating": 5.0, "reviews_count": 3, "type": "Paketshop" }, "geometry": { "type": "Point", "coordinates": [ 12.3795993, 51.3755586 ] } },
{ "type": "Feature", "properties": { "name": "Hermes PaketShop", "place_id": "ChIJZf9Dn1RZpkcREYob1Tv-q3k", "rating": 3.0, "reviews_count": 2, "type": "Paketshop" }, "geometry": { "type": "Point", "coordinates": [ 12.3637896, 51.3762817 ] } },
{ "type": "Feature", "properties": { "name": "Hermes PaketShop", "place_id": "ChIJzxl5G1NZpkcRkcDE9FkEGzg", "rating": 3.3, "reviews_count": 7, "type": "Paketshop" }, "geometry": { "type": "Point", "coordinates": [ 12.3777761, 51.3763753 ] } },
{ "type": "Feature", "properties": { "name": "DHL Paketshop 444", "place_id": "ChIJy-eHa61ZpkcRHbMqBNVW2Iw", "rating": 4.5, "reviews_count": 4, "type": "Paketshop" }, "geometry": { "type": "Point", "coordinates": [ 12.3645174, 51.3716115 ] } },
{ "type": "Feature", "properties": { "name": "Hermes PaketShop", "place_id": "ChIJ09KSz1dXpkcRdI7FIXeW_is", "rating": 2.6, "reviews_count": 39, "type": "Paketshop" }, "geometry": { "type": "Point", "coordinates": [ 12.3944197, 51.3793793 ] } },
{ "type": "Feature", "properties": { "name": "GLS PaketShop", "place_id": "ChIJm6HQ9exZpkcRm6LuOrTjmfY", "rating": 3.8, "reviews_count": 21, "type": "Paketshop" }, "geometry": { "type": "Point", "coordinates": [ 12.3699834, 51.3669953 ] } },
{ "type": "Feature", "properties": { "name": "DPD Pickup Paketshop", "place_id": "ChIJeWyE4vRZpkcRZ23CG0E604A", "rating": 3.7, "reviews_count": 18, "type": "Paketshop" }, "geometry": { "type": "Point", "coordinates": [ 12.3699912, 51.367027699999987 ] } },
{ "type": "Feature", "properties": { "name": "Hermes PaketShop", "place_id": "ChIJDR3y3qn3pkcRDQ7mXr5sFEI", "rating": 5.0, "reviews_count": 1, "type": "Paketshop" }, "geometry": { "type": "Point", "coordinates": [ 12.3661299, 51.365951499999987 ] } },
{ "type": "Feature", "properties": { "name": "Hermes PaketShop", "place_id": "ChIJIy5zXqf3pkcRXzmLbsl37_Q", "rating": 3.1, "reviews_count": 16, "type": "Paketshop" }, "geometry": { "type": "Point", "coordinates": [ 12.3661699, 51.3639603 ] } },
{ "type": "Feature", "properties": { "name": "GLS PaketShop", "place_id": "ChIJH8vKIZX3pkcRiOuqn66fScg", "rating": 5.0, "reviews_count": 1, "type": "Paketshop" }, "geometry": { "type": "Point", "coordinates": [ 12.359921, 51.363953 ] } },
{ "type": "Feature", "properties": { "name": "GLS PaketShop", "place_id": "ChIJEQzDvONXpkcRR7VLucBrpG8", "rating": 3.8, "reviews_count": 10, "type": "Paketshop" }, "geometry": { "type": "Point", "coordinates": [ 12.3984817, 51.368107 ] } },
{ "type": "Feature", "properties": { "name": "Hermes PaketShop", "place_id": "ChIJKx-1ok5XpkcRgNNyHbqmM-s", "rating": 4.0, "reviews_count": 5, "type": "Paketshop" }, "geometry": { "type": "Point", "coordinates": [ 12.4566803, 51.365421299999987 ] } },
{ "type": "Feature", "properties": { "name": "Hermes PaketShop", "place_id": "ChIJY_fK6gX5pkcRvhbZUIbXr8s", "rating": 4.5, "reviews_count": 4, "type": "Paketshop" }, "geometry": { "type": "Point", "coordinates": [ 12.43785, 51.3567505 ] } },
{ "type": "Feature", "properties": { "name": "DHL Paketshop 469", "place_id": "ChIJYf4gDMf5pkcRJPzmZZgRgAc", "rating": 4.1, "reviews_count": 58, "type": "Paketshop" }, "geometry": { "type": "Point", "coordinates": [ 12.4161189, 51.3561109 ] } },
{ "type": "Feature", "properties": { "name": "GLS PaketShop", "place_id": "ChIJAf-hDCJXpkcRFPFlo8MbXRw", "rating": 5.0, "reviews_count": 2, "type": "Paketshop" }, "geometry": { "type": "Point", "coordinates": [ 12.5011069, 51.3816602 ] } },
{ "type": "Feature", "properties": { "name": "GLS PaketShop", "place_id": "ChIJX4LQ9pFXpkcRc_t-D4tE-us", "rating": 4.6, "reviews_count": 7, "type": "Paketshop" }, "geometry": { "type": "Point", "coordinates": [ 12.4596554, 51.357337 ] } },
{ "type": "Feature", "properties": { "name": "DHL Paketshop 763", "place_id": "ChIJ9RO0yD35pkcRMPJOhZrRQUo", "rating": 4.0, "reviews_count": 76, "type": "Paketshop" }, "geometry": { "type": "Point", "coordinates": [ 12.4085209, 51.3353629 ] } },
{ "type": "Feature", "properties": { "name": "Hermes PaketShop", "place_id": "ChIJS7LB5ztXpkcRjcIfZqywuf0", "rating": 3.7, "reviews_count": 3, "type": "Paketshop" }, "geometry": { "type": "Point", "coordinates": [ 12.4271402, 51.3706093 ] } },
{ "type": "Feature", "properties": { "name": "GLS PaketShop", "place_id": "ChIJWTcJII_5pkcRgjN7kR3PQ9o", "rating": 4.0, "reviews_count": 1, "type": "Paketshop" }, "geometry": { "type": "Point", "coordinates": [ 12.46386, 51.35006 ] } },
{ "type": "Feature", "properties": { "name": "Hermes PaketShop", "place_id": "ChIJJTt9gCD5pkcR98RwmHsdKpc", "rating": 3.7, "reviews_count": 63, "type": "Paketshop" }, "geometry": { "type": "Point", "coordinates": [ 12.4169197, 51.359378799999988 ] } },
{ "type": "Feature", "properties": { "name": "Hermes PaketShop", "place_id": "ChIJ07LYIbn5pkcRMYpGNvz-T1U", "rating": 3.7, "reviews_count": 15, "type": "Paketshop" }, "geometry": { "type": "Point", "coordinates": [ 12.4546204, 51.3501396 ] } },
{ "type": "Feature", "properties": { "name": "Hermes PaketShop", "place_id": "ChIJt238NgP5pkcR-O3WazRFUSQ", "rating": 3.7, "reviews_count": 3, "type": "Paketshop" }, "geometry": { "type": "Point", "coordinates": [ 12.4787102, 51.3486519 ] } },
{ "type": "Feature", "properties": { "name": "GLS PaketShop", "place_id": "ChIJB9jMiwX5pkcR9yTtV2FH3pc", "rating": 1.0, "reviews_count": 2, "type": "Paketshop" }, "geometry": { "type": "Point", "coordinates": [ 12.4296422, 51.358961 ] } },
{ "type": "Feature", "properties": { "name": "GLS PaketShop", "place_id": "ChIJK1_4XOv3pkcRKVm9TdvNnog", "rating": 2.0, "reviews_count": 1, "type": "Paketshop" }, "geometry": { "type": "Point", "coordinates": [ 12.2652332, 51.345435300000013 ] } },
{ "type": "Feature", "properties": { "name": "GlasKlar Mobil Paketshop", "place_id": "ChIJKe1ccGD3pkcRYSJei0a4WCg", "rating": 5.0, "reviews_count": 1, "type": "Paketshop" }, "geometry": { "type": "Point", "coordinates": [ 12.2653857, 51.345383 ] } },
{ "type": "Feature", "properties": { "name": "Hermes PaketShop", "place_id": "ChIJMTLOp7L3pkcR3UP4-ymMu6Q", "rating": 2.5, "reviews_count": 4, "type": "Paketshop" }, "geometry": { "type": "Point", "coordinates": [ 12.2651396, 51.3476486 ] } },
{ "type": "Feature", "properties": { "name": "DHL Paketshop 596", "place_id": "ChIJoWbID773pkcRX9GSSQOwWz8", "rating": 4.1, "reviews_count": 26, "type": "Paketshop" }, "geometry": { "type": "Point", "coordinates": [ 12.2894598, 51.3205074 ] } },
{ "type": "Feature", "properties": { "name": "Hermes PaketShop", "place_id": "ChIJnz1rUrT3pkcRH3EbU7hDyCY", "rating": 3.4, "reviews_count": 18, "type": "Paketshop" }, "geometry": { "type": "Point", "coordinates": [ 12.2884703, 51.322849299999987 ] } },
{ "type": "Feature", "properties": { "name": "Hermes PaketShop", "place_id": "ChIJ3bzFf7T3pkcRnMCsIBVVCp8", "rating": 3.7, "reviews_count": 6, "type": "Paketshop" }, "geometry": { "type": "Point", "coordinates": [ 12.3072347, 51.3421715 ] } },
{ "type": "Feature", "properties": { "name": "GLS PaketShop", "place_id": "ChIJ29ZJbBH3pkcRsWiqXbmzncg", "rating": 5.0, "reviews_count": 5, "type": "Paketshop" }, "geometry": { "type": "Point", "coordinates": [ 12.3078119, 51.3271813 ] } },
{ "type": "Feature", "properties": { "name": "GLS PaketShop", "place_id": "ChIJWaRC-gX3pkcRkh-YzgX-lSE", "rating": 5.0, "reviews_count": 1, "type": "Paketshop" }, "geometry": { "type": "Point", "coordinates": [ 12.3147638, 51.3305476 ] } },
{ "type": "Feature", "properties": { "name": "Hermes PaketShop", "place_id": "ChIJc52z9uj3pkcRt3fpudP_V74", "rating": 4.0, "reviews_count": 5, "type": "Paketshop" }, "geometry": { "type": "Point", "coordinates": [ 12.3089104, 51.3268089 ] } },
{ "type": "Feature", "properties": { "name": "Hermes PaketShop", "place_id": "ChIJ6eDeATj3pkcRdC_HRFQZtPc", "rating": 4.6, "reviews_count": 5, "type": "Paketshop" }, "geometry": { "type": "Point", "coordinates": [ 12.3203297, 51.3439484 ] } },
{ "type": "Feature", "properties": { "name": "DHL Paketshop", "place_id": "ChIJD_QjqIr3pkcRglhK1e8_2dY", "rating": 3.6, "reviews_count": 17, "type": "Paketshop" }, "geometry": { "type": "Point", "coordinates": [ 12.3238542, 51.3414212 ] } },
{ "type": "Feature", "properties": { "name": "Hermes PaketShop", "place_id": "ChIJUfs40_X5pkcRstByvnN6jdI", "rating": 5.0, "reviews_count": 2, "type": "Paketshop" }, "geometry": { "type": "Point", "coordinates": [ 12.3746157, 51.3429756 ] } },
{ "type": "Feature", "properties": { "name": "DPD Pickup Station", "place_id": "ChIJCx7fvwb3pkcRifwlQJXcPik", "rating": 1.3, "reviews_count": 6, "type": "Paketshop" }, "geometry": { "type": "Point", "coordinates": [ 12.363816, 51.3387337 ] } },
{ "type": "Feature", "properties": { "name": "GLS PaketShop", "place_id": "ChIJndJTKa_5pkcRxy1noo5ppEE", "rating": 5.0, "reviews_count": 1, "type": "Paketshop" }, "geometry": { "type": "Point", "coordinates": [ 12.373312, 51.34345 ] } },
{ "type": "Feature", "properties": { "name": "Hermes PaketShop", "place_id": "ChIJia_J5Gz3pkcRo11NegOTZKA", "rating": 3.9, "reviews_count": 12, "type": "Paketshop" }, "geometry": { "type": "Point", "coordinates": [ 12.3668804, 51.3409615 ] } },
{ "type": "Feature", "properties": { "name": "GLS PaketShop", "place_id": "ChIJAZpX8Pz3pkcRytAemJVVcTo", "rating": 2.3, "reviews_count": 3, "type": "Paketshop" }, "geometry": { "type": "Point", "coordinates": [ 12.368254, 51.34146 ] } },
{ "type": "Feature", "properties": { "name": "DPD Pickup Paketshop", "place_id": "ChIJAf2ro0L5pkcR6SAISxOMY84", "rating": 3.2, "reviews_count": 5, "type": "Paketshop" }, "geometry": { "type": "Point", "coordinates": [ 12.3733117, 51.34345 ] } },
{ "type": "Feature", "properties": { "name": "DHL Paketshop 697", "place_id": "ChIJg4yMVw_5pkcR6s_kQS2GFA0", "rating": 3.0, "reviews_count": 2, "type": "Paketshop" }, "geometry": { "type": "Point", "coordinates": [ 12.3745919, 51.3379762 ] } },
{ "type": "Feature", "properties": { "name": "GLS PaketShop", "place_id": "ChIJd6_awtz5pkcRPSKvHqZ7260", "rating": 5.0, "reviews_count": 2, "type": "Paketshop" }, "geometry": { "type": "Point", "coordinates": [ 12.3763802, 51.3375886 ] } },
{ "type": "Feature", "properties": { "name": "DPD Pickup Paketshop", "place_id": "ChIJfVLdFi_5pkcRkTfJBpjADvY", "rating": 5.0, "reviews_count": 2, "type": "Paketshop" }, "geometry": { "type": "Point", "coordinates": [ 12.3763802, 51.3375886 ] } },
{ "type": "Feature", "properties": { "name": "Hermes PaketShop", "place_id": "ChIJZaXFeX75pkcRm9P-mtIJzcc", "rating": 2.8, "reviews_count": 32, "type": "Paketshop" }, "geometry": { "type": "Point", "coordinates": [ 12.3792105, 51.3408585 ] } },
{ "type": "Feature", "properties": { "name": "DPD Pickup Paketshop", "place_id": "ChIJc5JbmTj5pkcRusuFlP14ZvQ", "rating": 5.0, "reviews_count": 2, "type": "Paketshop" }, "geometry": { "type": "Point", "coordinates": [ 12.3797147, 51.340976299999987 ] } },
{ "type": "Feature", "properties": { "name": "DHL Paketshop 753", "place_id": "ChIJQzQeObX5pkcRf_Y1au_6cYo", "rating": 3.7, "reviews_count": 3, "type": "Paketshop" }, "geometry": { "type": "Point", "coordinates": [ 12.4493684, 51.3452473 ] } },
{ "type": "Feature", "properties": { "name": "DHL Paketshop", "place_id": "ChIJ8dO9pnL5pkcR_dIfnxODcLE", "rating": 4.0, "reviews_count": 9, "type": "Paketshop" }, "geometry": { "type": "Point", "coordinates": [ 12.478669, 51.3415795 ] } },
{ "type": "Feature", "properties": { "name": "GLS PaketShop", "place_id": "ChIJSUZYiHr5pkcRyKvF3uRuoGY", "rating": 3.6, "reviews_count": 5, "type": "Paketshop" }, "geometry": { "type": "Point", "coordinates": [ 12.4721355, 51.337835899999988 ] } },
{ "type": "Feature", "properties": { "name": "Hermes PaketShop", "place_id": "ChIJ5RFbMZb5pkcRT5bKieV-p-g", "rating": 2.5, "reviews_count": 11, "type": "Paketshop" }, "geometry": { "type": "Point", "coordinates": [ 12.4574604, 51.3449593 ] } },
{ "type": "Feature", "properties": { "name": "Hermes PaketShop", "place_id": "ChIJQ_at5Vn5pkcR92HyyksUo_o", "rating": 5.0, "reviews_count": 3, "type": "Paketshop" }, "geometry": { "type": "Point", "coordinates": [ 12.4846601, 51.341671 ] } },
{ "type": "Feature", "properties": { "name": "Hermes PaketShop", "place_id": "ChIJp_qncrf5pkcRp2V9ADv_ZSA", "rating": 2.3, "reviews_count": 3, "type": "Paketshop" }, "geometry": { "type": "Point", "coordinates": [ 12.4817305, 51.3350792 ] } },
{ "type": "Feature", "properties": { "name": "Hermes PaketShop", "place_id": "ChIJG5UiFrb_pkcRoi5ctfH_u0k", "rating": 3.2, "reviews_count": 6, "type": "Paketshop" }, "geometry": { "type": "Point", "coordinates": [ 12.4984198, 51.347930899999987 ] } },
{ "type": "Feature", "properties": { "name": "Deutsche Post Filiale 528", "place_id": "ChIJ31dS0P_4pkcRCYK1w051QGk", "rating": 2.9, "reviews_count": 313, "type": "Paketshop" }, "geometry": { "type": "Point", "coordinates": [ 12.4203662, 51.3194011 ] } },
{ "type": "Feature", "properties": { "name": "Deutsche Post Filiale 522", "place_id": "ChIJQxBvV0n3pkcREur-UkGlokM", "rating": 4.0, "reviews_count": 72, "type": "Paketshop" }, "geometry": { "type": "Point", "coordinates": [ 12.3228926, 51.3031714 ] } },
{ "type": "Feature", "properties": { "name": "Hermes PaketShop", "place_id": "ChIJ6ZxJWOP3pkcRQxFaHPnk8oc", "rating": 2.8, "reviews_count": 4, "type": "Paketshop" }, "geometry": { "type": "Point", "coordinates": [ 12.2702103, 51.3038101 ] } },
{ "type": "Feature", "properties": { "name": "DPD Pickup Paketshop", "place_id": "ChIJu9iIo8L2pkcR8DvI8rky7bw", "rating": 2.8, "reviews_count": 13, "type": "Paketshop" }, "geometry": { "type": "Point", "coordinates": [ 12.2804883, 51.3119761 ] } },
{ "type": "Feature", "properties": { "name": "Hermes PaketShop", "place_id": "ChIJzaY4Or33pkcRhFwHJlbeQlI", "rating": 5.0, "reviews_count": 4, "type": "Paketshop" }, "geometry": { "type": "Point", "coordinates": [ 12.2601805, 51.3060799 ] } },
{ "type": "Feature", "properties": { "name": "GLS PaketShop", "place_id": "ChIJb2VDaHr3pkcRztwC74N8lCs", "rating": 2.0, "reviews_count": 8, "type": "Paketshop" }, "geometry": { "type": "Point", "coordinates": [ 12.26546, 51.30807 ] } },
{ "type": "Feature", "properties": { "name": "Hermes PaketShop", "place_id": "ChIJAUnyrfP3pkcRl2QBoWnhIZU", "rating": 4.2, "reviews_count": 9, "type": "Paketshop" }, "geometry": { "type": "Point", "coordinates": [ 12.2796803, 51.3124008 ] } },
{ "type": "Feature", "properties": { "name": "DHL Paketshop 421", "place_id": "ChIJReuUPTP3pkcRywXFF2gxFAc", "rating": 2.6, "reviews_count": 5, "type": "Paketshop" }, "geometry": { "type": "Point", "coordinates": [ 12.2645771, 51.3139692 ] } },
{ "type": "Feature", "properties": { "name": "Hermes PaketShop", "place_id": "ChIJG6BxO3LxpkcRWqwSEHwLJgU", "rating": 3.8, "reviews_count": 4, "type": "Paketshop" }, "geometry": { "type": "Point", "coordinates": [ 12.3100996, 51.2780685 ] } },
{ "type": "Feature", "properties": { "name": "Kaufland Leipzig-Großzschocher", "place_id": "ChIJCbD2Ukf3pkcR_I6KA0Us1y0", "rating": 4.0, "reviews_count": 2358, "type": "Paketshop" }, "geometry": { "type": "Point", "coordinates": [ 12.3230272, 51.3029845 ] } },
{ "type": "Feature", "properties": { "name": "Hermes PaketShop", "place_id": "ChIJTXfcVD_3pkcRlLOluB0tMT4", "rating": 4.5, "reviews_count": 11, "type": "Paketshop" }, "geometry": { "type": "Point", "coordinates": [ 12.3225547, 51.3033291 ] } },
{ "type": "Feature", "properties": { "name": "Hermes PaketShop", "place_id": "ChIJC3RhwjX3pkcRZvDpPxWbSJI", "rating": 4.5, "reviews_count": 8, "type": "Paketshop" }, "geometry": { "type": "Point", "coordinates": [ 12.2644501, 51.314510299999988 ] } },
{ "type": "Feature", "properties": { "name": "DHL Paketshop 492", "place_id": "ChIJ1WbbZvv3pkcRr6l2UhfuQQE", "rating": 2.3, "reviews_count": 7, "type": "Paketshop" }, "geometry": { "type": "Point", "coordinates": [ 12.3043892, 51.320107 ] } },
{ "type": "Feature", "properties": { "name": "GLS PaketShop", "place_id": "ChIJdehYyl_xpkcRrcJCeoDi8W0", "rating": 1.0, "reviews_count": 1, "type": "Paketshop" }, "geometry": { "type": "Point", "coordinates": [ 12.3085762, 51.2727774 ] } },
{ "type": "Feature", "properties": { "name": "GLS PaketShop", "place_id": "ChIJX8LJ0-v3pkcR-IBzaSnFy3E", "rating": 5.0, "reviews_count": 1, "type": "Paketshop" }, "geometry": { "type": "Point", "coordinates": [ 12.3275618, 51.304696799999988 ] } },
{ "type": "Feature", "properties": { "name": "Paketshop", "place_id": "ChIJZ2z1MHf3pkcRA5ZMdvblVrA", "rating": 3.6, "reviews_count": 43, "type": "Paketshop" }, "geometry": { "type": "Point", "coordinates": [ 12.3427347, 51.3224773 ] } },
{ "type": "Feature", "properties": { "name": "Hermes PaketShop", "place_id": "ChIJv19iwab5pkcRWkljl30UsFg", "rating": 2.7, "reviews_count": 26, "type": "Paketshop" }, "geometry": { "type": "Point", "coordinates": [ 12.3864203, 51.296211199999988 ] } },
{ "type": "Feature", "properties": { "name": "DHL Paketshop 688", "place_id": "ChIJfz12d9D5pkcREGeATLLHsBo", "rating": 3.7, "reviews_count": 6, "type": "Paketshop" }, "geometry": { "type": "Point", "coordinates": [ 12.3737624, 51.3110265 ] } },
{ "type": "Feature", "properties": { "name": "DHL Paketshop 442", "place_id": "ChIJPcF0zr75pkcRYjJEqWJRo64", "rating": 2.2, "reviews_count": 10, "type": "Paketshop" }, "geometry": { "type": "Point", "coordinates": [ 12.3809584, 51.3057893 ] } },
{ "type": "Feature", "properties": { "name": "Hermes PaketShop", "place_id": "ChIJh1ky3mD5pkcRK3qI1QTJO7Q", "rating": 4.0, "reviews_count": 3, "type": "Paketshop" }, "geometry": { "type": "Point", "coordinates": [ 12.3761902, 51.3046112 ] } },
{ "type": "Feature", "properties": { "name": "DHL Paketshop 452", "place_id": "ChIJSXO93vz5pkcReO_Bme-C1_s", "rating": 4.6, "reviews_count": 19, "type": "Paketshop" }, "geometry": { "type": "Point", "coordinates": [ 12.3732094, 51.321619299999988 ] } },
{ "type": "Feature", "properties": { "name": "DHL Paketshop 416", "place_id": "ChIJD1wXo6D5pkcRc7NhS9m-GMM", "rating": 4.1, "reviews_count": 11, "type": "Paketshop" }, "geometry": { "type": "Point", "coordinates": [ 12.3747896, 51.3204017 ] } },
{ "type": "Feature", "properties": { "name": "DPD Pickup Paketshop", "place_id": "ChIJ7XwziaL5pkcRusJc9d1AbAY", "rating": 3.2, "reviews_count": 15, "type": "Paketshop" }, "geometry": { "type": "Point", "coordinates": [ 12.396691, 51.301805599999987 ] } },
{ "type": "Feature", "properties": { "name": "DHL Paketshop 648", "place_id": "ChIJLWS-YN35pkcRglqLaKUENFc", "rating": 3.7, "reviews_count": 6, "type": "Paketshop" }, "geometry": { "type": "Point", "coordinates": [ 12.3716054, 51.318165099999987 ] } },
{ "type": "Feature", "properties": { "name": "Hermes PaketShop", "place_id": "ChIJa3sw62X5pkcR9JJmnqbZPUA", "rating": 3.4, "reviews_count": 9, "type": "Paketshop" }, "geometry": { "type": "Point", "coordinates": [ 12.3966904, 51.3015785 ] } },
{ "type": "Feature", "properties": { "name": "Hermes PaketShop", "place_id": "ChIJD5YTh2f5pkcRdn_q_VM9WC4", "rating": 4.2, "reviews_count": 5, "type": "Paketshop" }, "geometry": { "type": "Point", "coordinates": [ 12.3780603, 51.3081589 ] } },
{ "type": "Feature", "properties": { "name": "Hermes PaketShop", "place_id": "ChIJt5Q-iaf5pkcRXOUoUYgyoEo", "rating": 5.0, "reviews_count": 3, "type": "Paketshop" }, "geometry": { "type": "Point", "coordinates": [ 12.3768902, 51.31464 ] } },
{ "type": "Feature", "properties": { "name": "Hermes PaketShop", "place_id": "ChIJvbiXgAT5pkcRwFYDN6Gm2WI", "rating": 4.4, "reviews_count": 15, "type": "Paketshop" }, "geometry": { "type": "Point", "coordinates": [ 12.3718801, 51.3175973 ] } },
{ "type": "Feature", "properties": { "name": "DPD Pickup Paketshop", "place_id": "ChIJqd85mMX5pkcR8mE__fVimIo", "rating": 3.7, "reviews_count": 9, "type": "Paketshop" }, "geometry": { "type": "Point", "coordinates": [ 12.371589, 51.318172 ] } },
{ "type": "Feature", "properties": { "name": "DHL Paketshop 449", "place_id": "ChIJD1LmhoT5pkcRW-7Bzvojj5o", "rating": 2.6, "reviews_count": 5, "type": "Paketshop" }, "geometry": { "type": "Point", "coordinates": [ 12.3996355, 51.3190427 ] } },
{ "type": "Feature", "properties": { "name": "Hermes PaketShop", "place_id": "ChIJSysEjiP_pkcRxivyeQSv1Nk", "rating": 4.1, "reviews_count": 17, "type": "Paketshop" }, "geometry": { "type": "Point", "coordinates": [ 12.467, 51.2816086 ] } },
{ "type": "Feature", "properties": { "name": "GLS PaketShop", "place_id": "ChIJxVJypuD5pkcR9ZCO5eQGdNU", "rating": 2.6, "reviews_count": 7, "type": "Paketshop" }, "geometry": { "type": "Point", "coordinates": [ 12.4289066, 51.2985243 ] } },
{ "type": "Feature", "properties": { "name": "GLS PaketShop", "place_id": "ChIJm7SYLwv5pkcRM_5z3WW2BHg", "rating": 4.5, "reviews_count": 2, "type": "Paketshop" }, "geometry": { "type": "Point", "coordinates": [ 12.42987, 51.3055 ] } },
{ "type": "Feature", "properties": { "name": "GLS PaketShop", "place_id": "ChIJMxZSDmj5pkcRnJ41FhUfO9Q", "rating": 3.0, "reviews_count": 2, "type": "Paketshop" }, "geometry": { "type": "Point", "coordinates": [ 12.4322256, 51.300193 ] } },
{ "type": "Feature", "properties": { "name": "Hermes PaketShop", "place_id": "ChIJIQ3c0yX5pkcRkLEbIEZKEaU", "rating": 5.0, "reviews_count": 1, "type": "Paketshop" }, "geometry": { "type": "Point", "coordinates": [ 12.4264603, 51.3047295 ] } },
{ "type": "Feature", "properties": { "name": "Hermes PaketShop", "place_id": "ChIJ8cY6S__5pkcRXXKIb4bfaYo", "rating": 2.3, "reviews_count": 4, "type": "Paketshop" }, "geometry": { "type": "Point", "coordinates": [ 12.4328604, 51.3007011 ] } },
{ "type": "Feature", "properties": { "name": "Hermes PaketShop", "place_id": "ChIJuw2CLVT4pkcRGEBiK5ZPy_k", "rating": 4.1, "reviews_count": 45, "type": "Paketshop" }, "geometry": { "type": "Point", "coordinates": [ 12.4155598, 51.3241386 ] } },
{ "type": "Feature", "properties": { "name": "Hermes PaketShop", "place_id": "ChIJuVBwFAn9pkcR-09M9qvbrEU", "rating": 3.0, "reviews_count": 5, "type": "Paketshop" }, "geometry": { "type": "Point", "coordinates": [ 12.49718, 51.2685509 ] } },
{ "type": "Feature", "properties": { "name": "Hermes PaketShop", "place_id": "ChIJdSCckWX5pkcRaSZ_BQY4d1Q", "rating": 5.0, "reviews_count": 1, "type": "Paketshop" }, "geometry": { "type": "Point", "coordinates": [ 12.4298801, 51.3211403 ] } },
{ "type": "Feature", "properties": { "name": "Großmarkt Leipzig GmbH", "place_id": "ChIJyZ7TMtlYpkcRef1BoIwb3Ww", "rating": 4.2, "reviews_count": 69, "type": "Small retail" }, "geometry": { "type": "Point", "coordinates": [ 12.3057008, 51.4113499 ] } },
{ "type": "Feature", "properties": { "name": "REWE", "place_id": "ChIJ31d1niL4pkcRKHpRrJXCdjY", "rating": 4.2, "reviews_count": 2311, "type": "Small retail" }, "geometry": { "type": "Point", "coordinates": [ 12.3825919, 51.3441698 ] } },
{ "type": "Feature", "properties": { "name": "RB Brot Markt - Ihr Osteuropäischer Supermarkt in Grünau, Leipzig", "place_id": "ChIJe9F14CL3pkcRXIrzb1kONB8", "rating": 4.5, "reviews_count": 1268, "type": "Small retail" }, "geometry": { "type": "Point", "coordinates": [ 12.2896011, 51.318036199999987 ] } },
{ "type": "Feature", "properties": { "name": "SPAR Express", "place_id": "ChIJ-02lmxj4pkcRnlrkTUa4-VA", "rating": 2.5, "reviews_count": 144, "type": "Small retail" }, "geometry": { "type": "Point", "coordinates": [ 12.3809395, 51.3445708 ] } },
{ "type": "Feature", "properties": { "name": "Konsum Leipzig", "place_id": "ChIJxeaeax74pkcRGWOkLHiqGoo", "rating": 4.0, "reviews_count": 501, "type": "Small retail" }, "geometry": { "type": "Point", "coordinates": [ 12.3742353, 51.349356699999987 ] } },
{ "type": "Feature", "properties": { "name": "Nightfly Lounge Leipzig", "place_id": "ChIJ1SJMAyL5pkcRqjTVV2xdRZI", "rating": 4.6, "reviews_count": 1174, "type": "Small retail" }, "geometry": { "type": "Point", "coordinates": [ 12.3722195, 51.341801 ] } },
{ "type": "Feature", "properties": { "name": "GALERIA Leipzig", "place_id": "ChIJtTBROCT4pkcR6T7329XfWss", "rating": 4.1, "reviews_count": 9140, "type": "Small retail" }, "geometry": { "type": "Point", "coordinates": [ 12.3768911, 51.339458 ] } },
{ "type": "Feature", "properties": { "name": "Ariana Markt", "place_id": "ChIJl_uq4q75pkcRYgd856EobhM", "rating": 4.6, "reviews_count": 49, "type": "Small retail" }, "geometry": { "type": "Point", "coordinates": [ 12.3883994, 51.3439922 ] } },
{ "type": "Feature", "properties": { "name": "IM ANGEBOT", "place_id": "ChIJpdd8mqP3pkcRRSJ9TTUUWZ4", "rating": 4.3, "reviews_count": 1485, "type": "Small retail" }, "geometry": { "type": "Point", "coordinates": [ 12.3304207, 51.3358972 ] } },
{ "type": "Feature", "properties": { "name": "go asia Supermarkt - Leipzig", "place_id": "ChIJj3guDUL5pkcRoxBg4XMW4GE", "rating": 4.7, "reviews_count": 542, "type": "Small retail" }, "geometry": { "type": "Point", "coordinates": [ 12.3782062, 51.3410357 ] } },
{ "type": "Feature", "properties": { "name": "REWE", "place_id": "ChIJBWXlBiH4pkcRQbHAC7Pvg4Q", "rating": 4.2, "reviews_count": 1524, "type": "Small retail" }, "geometry": { "type": "Point", "coordinates": [ 12.3730278, 51.3427199 ] } },
{ "type": "Feature", "properties": { "name": "Lidl", "place_id": "ChIJw2Zoc3f5pkcRZzSMSj3-3lg", "rating": 4.1, "reviews_count": 348, "type": "Small retail" }, "geometry": { "type": "Point", "coordinates": [ 12.37588, 51.34356 ] } },
{ "type": "Feature", "properties": { "name": "EDEKA Leipzig", "place_id": "ChIJo9ledTD4pkcRLfqcy5N3gTU", "rating": 3.8, "reviews_count": 880, "type": "Small retail" }, "geometry": { "type": "Point", "coordinates": [ 12.3817975, 51.333796 ] } },
{ "type": "Feature", "properties": { "name": "REWE", "place_id": "ChIJZ2xgszX4pkcRIN9VpH9rhYQ", "rating": 4.2, "reviews_count": 1778, "type": "Small retail" }, "geometry": { "type": "Point", "coordinates": [ 12.3868175, 51.3257865 ] } },
{ "type": "Feature", "properties": { "name": "IM ANGEBOT Leipzig 2 - Unser Name ist Programm!", "place_id": "ChIJzX6UxWv4pkcRbRzE9EyqWMs", "rating": 4.3, "reviews_count": 922, "type": "Small retail" }, "geometry": { "type": "Point", "coordinates": [ 12.4057057, 51.3453981 ] } },
{ "type": "Feature", "properties": { "name": "REWE", "place_id": "ChIJNYRkmp_5pkcRR2UN_EFQT_0", "rating": 4.1, "reviews_count": 607, "type": "Small retail" }, "geometry": { "type": "Point", "coordinates": [ 12.3754062, 51.337902799999988 ] } },
{ "type": "Feature", "properties": { "name": "Lidl", "place_id": "ChIJHVhEJiT4pkcRULV8BIIEctY", "rating": 4.2, "reviews_count": 1394, "type": "Small retail" }, "geometry": { "type": "Point", "coordinates": [ 12.37345, 51.3374 ] } },
{ "type": "Feature", "properties": { "name": "HIT Supermarkt", "place_id": "ChIJq3eU8LL5pkcRV4hzbSZXEqQ", "rating": 4.2, "reviews_count": 2025, "type": "Small retail" }, "geometry": { "type": "Point", "coordinates": [ 12.3993687, 51.3188295 ] } },
{ "type": "Feature", "properties": { "name": "Petersbogen Leipzig", "place_id": "ChIJP2x_EaX5pkcRzcNzawDqJXA", "rating": 4.3, "reviews_count": 3551, "type": "Small retail" }, "geometry": { "type": "Point", "coordinates": [ 12.3743186, 51.3378103 ] } },
{ "type": "Feature", "properties": { "name": "Promenaden Hauptbahnhof Leipzig", "place_id": "ChIJIZsSeCL4pkcRoReq9fgBOKc", "rating": 4.5, "reviews_count": 21364, "type": "Small retail" }, "geometry": { "type": "Point", "coordinates": [ 12.3826259, 51.3438583 ] } },
{ "type": "Feature", "properties": { "name": "Nahkauf", "place_id": "ChIJGeWrrURZpkcRVvKo40CTt7U", "rating": 4.7, "reviews_count": 22, "type": "Small retail" }, "geometry": { "type": "Point", "coordinates": [ 12.3693371, 51.38834 ] } },
{ "type": "Feature", "properties": { "name": "GLOBUS Leipzig-Seehausen", "place_id": "ChIJjxCkBCpYpkcRaXz7p7glfDs", "rating": 4.4, "reviews_count": 4974, "type": "Small retail" }, "geometry": { "type": "Point", "coordinates": [ 12.395113, 51.401059 ] } },
{ "type": "Feature", "properties": { "name": "EDEKA Potrzebski", "place_id": "ChIJ2fKoVSNYpkcRm7aXeGdCUn8", "rating": 4.4, "reviews_count": 1299, "type": "Small retail" }, "geometry": { "type": "Point", "coordinates": [ 12.3768111, 51.3926929 ] } },
{ "type": "Feature", "properties": { "name": "EDEKA Parsche", "place_id": "ChIJcbvpNQxYpkcR05DJFSm1q9Q", "rating": 4.3, "reviews_count": 1176, "type": "Small retail" }, "geometry": { "type": "Point", "coordinates": [ 12.3602009, 51.375818 ] } },
{ "type": "Feature", "properties": { "name": "Action Leipzig-Wiederitzsch", "place_id": "ChIJ47wx9hJZpkcRvKuSv6mv8g8", "rating": 4.4, "reviews_count": 45, "type": "Small retail" }, "geometry": { "type": "Point", "coordinates": [ 12.3749558, 51.3936564 ] } },
{ "type": "Feature", "properties": { "name": "Dong Xuan Markt", "place_id": "ChIJg7zxn-NXpkcR4Yi3rW0uWK0", "rating": 4.0, "reviews_count": 513, "type": "Small retail" }, "geometry": { "type": "Point", "coordinates": [ 12.3984537, 51.3674159 ] } },
{ "type": "Feature", "properties": { "name": "FrischeParadies | Feinkostmarkt & Bistro Leipzig", "place_id": "ChIJcVHs8OJXpkcRyh8yyHWZOyQ", "rating": 4.5, "reviews_count": 262, "type": "Small retail" }, "geometry": { "type": "Point", "coordinates": [ 12.3972754, 51.3659166 ] } },
{ "type": "Feature", "properties": { "name": "Kaufland Leipzig-Heiterblick", "place_id": "ChIJywdh3iRWpkcR-Xr2i_fSfWo", "rating": 4.2, "reviews_count": 3523, "type": "Small retail" }, "geometry": { "type": "Point", "coordinates": [ 12.4589578, 51.3672334 ] } },
{ "type": "Feature", "properties": { "name": "Lenta Lebensmittel - osteuropäische Spezialitäten", "place_id": "ChIJ1x4QNRxWpkcRBC2FaeF2zm4", "rating": 4.6, "reviews_count": 971, "type": "Small retail" }, "geometry": { "type": "Point", "coordinates": [ 12.4730348, 51.3587341 ] } },
{ "type": "Feature", "properties": { "name": "Thomas Philipps Leipzig-Portitz", "place_id": "ChIJx2vOvktWpkcRguQE9EqYSjk", "rating": 4.2, "reviews_count": 1242, "type": "Small retail" }, "geometry": { "type": "Point", "coordinates": [ 12.4517228, 51.3820802 ] } },
{ "type": "Feature", "properties": { "name": "Konsum Leipzig", "place_id": "ChIJPaU_uj74pkcRj1FURDjc8us", "rating": 4.2, "reviews_count": 172, "type": "Small retail" }, "geometry": { "type": "Point", "coordinates": [ 12.3902623, 51.3387839 ] } },
{ "type": "Feature", "properties": { "name": "Kaufland Leipzig-Burghausen", "place_id": "ChIJxQ3HDWr3pkcRpn2yc0IVjK0", "rating": 4.0, "reviews_count": 734, "type": "Small retail" }, "geometry": { "type": "Point", "coordinates": [ 12.264274, 51.347623899999988 ] } },
{ "type": "Feature", "properties": { "name": "REWE Center", "place_id": "ChIJVcjN2eT2pkcRYVZ0JgI0NCo", "rating": 4.2, "reviews_count": 1500, "type": "Small retail" }, "geometry": { "type": "Point", "coordinates": [ 12.2879804, 51.3190302 ] } },
{ "type": "Feature", "properties": { "name": "Action", "place_id": "ChIJQ8sqNGX2pkcReNBTVSR11Oc", "rating": 4.4, "reviews_count": 2227, "type": "Small retail" }, "geometry": { "type": "Point", "coordinates": [ 12.267564, 51.344459 ] } },
{ "type": "Feature", "properties": { "name": "REWE", "place_id": "ChIJS9cXS-X2pkcRmsOhb89c6i4", "rating": 4.2, "reviews_count": 782, "type": "Small retail" }, "geometry": { "type": "Point", "coordinates": [ 12.28778, 51.322524 ] } },
{ "type": "Feature", "properties": { "name": "Konsum Leipzig", "place_id": "ChIJYTHVAob3pkcRZfag2ab3cmw", "rating": 4.1, "reviews_count": 352, "type": "Small retail" }, "geometry": { "type": "Point", "coordinates": [ 12.3596099, 51.336061 ] } },
{ "type": "Feature", "properties": { "name": "Elli's 24/7 to go, Späti & Kiosk, Automaten", "place_id": "ChIJzSJvRgD3pkcRiwUYj91MvB4", "rating": 4.4, "reviews_count": 65, "type": "Small retail" }, "geometry": { "type": "Point", "coordinates": [ 12.3683263, 51.3414106 ] } },
{ "type": "Feature", "properties": { "name": "Zur Pleißenburg / Leipzig", "place_id": "ChIJ8Ttljib4pkcR-7NP3HXsHZs", "rating": 4.4, "reviews_count": 1343, "type": "Small retail" }, "geometry": { "type": "Point", "coordinates": [ 12.3729003, 51.3377205 ] } },
{ "type": "Feature", "properties": { "name": "Konsum Leipzig", "place_id": "ChIJefarHYr3pkcRuNJnypt69so", "rating": 4.1, "reviews_count": 200, "type": "Small retail" }, "geometry": { "type": "Point", "coordinates": [ 12.3660915, 51.3401654 ] } },
{ "type": "Feature", "properties": { "name": "Denns BioMarkt Leipzig", "place_id": "ChIJ7wLDuSH4pkcRijCZuEbFy4E", "rating": 3.8, "reviews_count": 68, "type": "Small retail" }, "geometry": { "type": "Point", "coordinates": [ 12.3765463, 51.3433359 ] } },
{ "type": "Feature", "properties": { "name": "NORMA Filiale", "place_id": "ChIJSdRoDSf4pkcRjTb-BgmxhFc", "rating": 3.9, "reviews_count": 344, "type": "Small retail" }, "geometry": { "type": "Point", "coordinates": [ 12.3692833, 51.3382652 ] } },
{ "type": "Feature", "properties": { "name": "Macis Leipzig - Biomarkt", "place_id": "ChIJ48jllzD5pkcRU21azHi2e6k", "rating": 4.4, "reviews_count": 125, "type": "Small retail" }, "geometry": { "type": "Point", "coordinates": [ 12.3722439, 51.337687 ] } },
{ "type": "Feature", "properties": { "name": "Asia Bistro & Supermarkt Leipzig", "place_id": "ChIJkTwlEyH4pkcRXiTAv3EPAdY", "rating": 4.1, "reviews_count": 1238, "type": "Small retail" }, "geometry": { "type": "Point", "coordinates": [ 12.374182, 51.3416674 ] } },
{ "type": "Feature", "properties": { "name": "Spizz - Der Leipziger Jazz & Musicclub", "place_id": "ChIJO9OgQSH4pkcRu2JYJ7-bOrA", "rating": 4.5, "reviews_count": 4020, "type": "Small retail" }, "geometry": { "type": "Point", "coordinates": [ 12.3741319, 51.3408574 ] } },
{ "type": "Feature", "properties": { "name": "Rubel Lebensmittel", "place_id": "ChIJrW-gRrf4pkcR2TP2emcaTH4", "rating": 4.4, "reviews_count": 8, "type": "Small retail" }, "geometry": { "type": "Point", "coordinates": [ 12.473067, 51.338851 ] } },
{ "type": "Feature", "properties": { "name": "Action Leipzig", "place_id": "ChIJfQco_C35pkcRzpymivrCtBA", "rating": 4.4, "reviews_count": 656, "type": "Small retail" }, "geometry": { "type": "Point", "coordinates": [ 12.4854678, 51.3461158 ] } },
{ "type": "Feature", "properties": { "name": "REWE", "place_id": "ChIJW2-MxT_4pkcR-Z8RD4POaJE", "rating": 4.1, "reviews_count": 1480, "type": "Small retail" }, "geometry": { "type": "Point", "coordinates": [ 12.3957632, 51.3417781 ] } },
{ "type": "Feature", "properties": { "name": "Arabischer Lebensmittel Laden", "place_id": "ChIJAdG2kOv3pkcRM6AAbfP1KAg", "rating": 4.2, "reviews_count": 18, "type": "Small retail" }, "geometry": { "type": "Point", "coordinates": [ 12.2643595, 51.3137394 ] } },
{ "type": "Feature", "properties": { "name": "Konsum Leipzig", "place_id": "ChIJtQzLLCD6pkcR9_iKYEJvToc", "rating": 3.9, "reviews_count": 174, "type": "Small retail" }, "geometry": { "type": "Point", "coordinates": [ 12.3697207, 51.278849699999988 ] } },
{ "type": "Feature", "properties": { "name": "go asia Supermarkt - Leipzig Petersstraße", "place_id": "ChIJAWqgyDj5pkcRneVIJE1dvSY", "rating": 4.5, "reviews_count": 105, "type": "Small retail" }, "geometry": { "type": "Point", "coordinates": [ 12.3746965, 51.3368779 ] } }
]
}
